{
    "AAT": {
        "IATA": "AAT",
        "city": "阿勒泰",
        "country": "中国",
        "latitude": 47.749,
        "longitude": 88.089,
        "name": "阿勒泰",
        "timezone": "Asia/Shanghai"
    },
    "ACX": {
        "IATA": "ACX",
        "ICAO": "ZUYI",
        "altitude": 4150.0,
        "city": "兴义",
        "country": "中国",
        "latitude": 25.155,
        "longitude": 104.971,
        "name": "兴义万峰林",
        "timezone": "Asia/Shanghai"
    },
    "AEB": {
        "IATA": "AEB",
        "city": "百色",
        "country": "中国",
        "latitude": 23.72,
        "longitude": 106.960278,
        "name": "百色巴马",
        "timezone": "Asia/Shanghai"
    },
    "AHJ": {
        "IATA": "AHJ",
        "city": "阿坝",
        "country": "中国",
        "latitude": 32.531389,
        "longitude": 102.352222,
        "name": "阿坝红原",
        "timezone": "Asia/Shanghai"
    },
    "AKA": {
        "IATA": "AKA",
        "ICAO": "ZLAK",
        "altitude": 860.0,
        "city": "安康",
        "country": "中国",
        "latitude": 32.708056,
        "longitude": 108.931389,
        "name": "安康五里铺",
        "timezone": "Asia/Shanghai"
    },
    "AKU": {
        "IATA": "AKU",
        "ICAO": "ZWAK",
        "altitude": 3816.0,
        "city": "阿克苏",
        "country": "中国",
        "latitude": 41.2625,
        "longitude": 80.291667,
        "name": "阿克苏温宿",
        "timezone": "Asia/Shanghai"
    },
    "AOG": {
        "IATA": "AOG",
        "ICAO": "ZYAS",
        "altitude": 0.0,
        "city": "鞍山",
        "country": "中国",
        "latitude": 41.105278,
        "longitude": 122.853889,
        "name": "鞍山腾鳌",
        "timezone": "Asia/Shanghai"
    },
    "AQG": {
        "IATA": "AQG",
        "ICAO": "ZSAQ",
        "altitude": 0.0,
        "city": "安庆",
        "country": "中国",
        "latitude": 30.582222,
        "longitude": 117.050278,
        "name": "安庆天柱山",
        "timezone": "Asia/Shanghai"
    },
    "AVA": {
        "IATA": "AVA",
        "ICAO": "ZUAS",
        "altitude": 4812.0,
        "city": "安顺",
        "country": "中国",
        "latitude": 26.260556,
        "longitude": 105.873056,
        "name": "安顺黄果树",
        "timezone": "Asia/Shanghai"
    },
    "AXF": {
        "IATA": "AXF",
        "city": "阿拉善左旗",
        "country": "中国",
        "latitude": 38.823333,
        "longitude": 105.630833,
        "name": "阿拉善左旗巴彦浩特",
        "timezone": "Asia/Shanghai"
    },
    "BAR": {
        "IATA": "BAR",
        "ICAO": "ZJQH",
        "altitude": 30.0,
        "city": "琼海",
        "country": "中国",
        "latitude": 19.138889,
        "longitude": 110.454167,
        "name": "琼海博鳌",
        "timezone": "Asia/Shanghai"
    },
    "BFJ": {
        "IATA": "BFJ",
        "ICAO": "ZUBJ",
        "altitude": 4751.0,
        "city": "毕节",
        "country": "中国",
        "latitude": 27.300278,
        "longitude": 105.301389,
        "name": "毕节飞雄",
        "timezone": "Asia/Shanghai"
    },
    "BPE": {
        "IATA": "BPE",
        "ICAO": "ZBDH",
        "altitude": 46.0,
        "city": "秦皇岛",
        "country": "中国",
        "latitude": 39.666389,
        "longitude": 119.061389,
        "name": "秦皇岛北戴河",
        "timezone": "Asia/Shanghai"
    },
    "BPL": {
        "IATA": "BPL",
        "ICAO": "ZWAX",
        "altitude": 1253.0,
        "city": "博乐",
        "country": "中国",
        "latitude": 44.895278,
        "longitude": 82.3,
        "name": "博乐阿拉山口",
        "timezone": "Asia/Shanghai"
    },
    "BPX": {
        "IATA": "BPX",
        "ICAO": "ZUBD",
        "altitude": 14219.0,
        "city": "昌都",
        "country": "中国",
        "latitude": 30.553611,
        "longitude": 97.108333,
        "name": "昌都邦达",
        "timezone": "Asia/Shanghai"
    },
    "BSD": {
        "IATA": "BSD",
        "ICAO": "ZPBS",
        "altitude": 5453,
        "city": "保山",
        "country": "中国",
        "latitude": 25.051667,
        "longitude": 99.168056,
        "name": "保山云瑞",
        "timezone": "Asia/Shanghai"
    },
    "CDE": {
        "IATA": "CDE",
        "ICAO": "ZBCD",
        "altitude": 0.0,
        "city": "承德",
        "country": "中国",
        "latitude": 41.120833,
        "longitude": 118.0775,
        "name": "承德普宁",
        "timezone": "Asia/Shanghai"
    },
    "CGD": {
        "IATA": "CGD",
        "ICAO": "ZGCD",
        "altitude": 128.0,
        "city": "常德",
        "country": "中国",
        "latitude": 28.918889,
        "longitude": 111.640278,
        "name": "常德桃花源",
        "timezone": "Asia/Shanghai"
    },
    "CHG": {
        "IATA": "CHG",
        "ICAO": "ZYCY",
        "altitude": 568.0,
        "city": "朝阳",
        "country": "中国",
        "latitude": 41.538056,
        "longitude": 120.435,
        "name": "朝阳",
        "timezone": "Asia/Shanghai"
    },
    "CIH": {
        "IATA": "CIH",
        "ICAO": "ZBCZ",
        "altitude": 0.0,
        "city": "长治",
        "country": "中国",
        "latitude": 36.2475,
        "longitude": 113.125833,
        "name": "长治王村",
        "timezone": "Asia/Shanghai"
    },
    "CNI": {
        "IATA": "CNI",
        "ICAO": "ZYCH",
        "altitude": 80.0,
        "city": "长海",
        "country": "中国",
        "latitude": 39.266389,
        "longitude": 122.666944,
        "name": "长海大长山岛",
        "timezone": "Asia/Shanghai"
    },
    "CWJ": {
        "IATA": "CWJ",
        "ICAO": "ZPCW",
        "altitude": 0.0,
        "city": "沧源",
        "country": "中国",
        "latitude": 23.234,
        "longitude": 99.329,
        "name": "沧源佤山",
        "timezone": "Asia/Shanghai"
    },
    "DAT": {
        "IATA": "DAT",
        "ICAO": "ZBDT",
        "altitude": 3442.0,
        "city": "大同",
        "country": "中国",
        "latitude": 40.060278,
        "longitude": 113.482222,
        "name": "大同云冈",
        "timezone": "Asia/Shanghai"
    },
    "DAX": {
        "IATA": "DAX",
        "ICAO": "ZUDX",
        "altitude": 0.0,
        "city": "达州",
        "country": "中国",
        "latitude": 31.130278,
        "longitude": 107.429167,
        "name": "达州河市",
        "timezone": "Asia/Shanghai"
    },
    "DBC": {
        "IATA": "DBC",
        "city": "白城",
        "country": "中国",
        "latitude": 45.505278,
        "longitude": 123.019722,
        "name": "白城长安",
        "timezone": "Asia/Shanghai"
    },
    "DCY": {
        "IATA": "DCY",
        "ICAO": "ZUDC",
        "altitude": 14472.0,
        "city": "稻城",
        "country": "中国",
        "latitude": 29.323056,
        "longitude": 100.053333,
        "name": "稻城亚丁",
        "timezone": "Asia/Shanghai"
    },
    "DDG": {
        "IATA": "DDG",
        "ICAO": "ZYDD",
        "altitude": 29.9,
        "city": "丹东",
        "country": "中国",
        "latitude": 40.025556,
        "longitude": 124.286667,
        "name": "丹东浪头",
        "timezone": "Asia/Shanghai"
    },
    "DIG": {
        "IATA": "DIG",
        "ICAO": "ZPDQ",
        "altitude": 10761.0,
        "city": "迪庆",
        "country": "中国",
        "latitude": 27.793611,
        "longitude": 99.677222,
        "name": "迪庆香格里拉",
        "timezone": "Asia/Shanghai"
    },
    "DNH": {
        "IATA": "DNH",
        "ICAO": "ZLDH",
        "altitude": 0.0,
        "city": "敦煌",
        "country": "中国",
        "latitude": 40.161111,
        "longitude": 94.809167,
        "name": "敦煌",
        "timezone": "Asia/Shanghai"
    },
    "DOY": {
        "IATA": "DOY",
        "ICAO": "ZSDY",
        "altitude": 18.0,
        "city": "东营",
        "country": "中国",
        "latitude": 37.508333,
        "longitude": 118.788889,
        "name": "东营胜利",
        "timezone": "Asia/Shanghai"
    },
    "DQA": {
        "IATA": "DQA",
        "ICAO": "ZYDQ",
        "city": "大庆",
        "country": "中国",
        "latitude": 46.750833,
        "longitude": 125.138611,
        "name": "大庆萨尔图",
        "timezone": "Asia/Shanghai"
    },
    "DTU": {
        "IATA": "DTU",
        "ICAO": "ZYDU",
        "altitude": 984.0,
        "city": "五大连池",
        "country": "中国",
        "latitude": 48.445,
        "longitude": 126.133,
        "name": "五大连池德都",
        "timezone": "Asia/Shanghai"
    },
    "EJN": {
        "IATA": "EJN",
        "city": "额济纳旗",
        "country": "中国",
        "latitude": 42.015278,
        "longitude": 101.000278,
        "name": "额济纳旗桃来",
        "timezone": "Asia/Shanghai"
    },
    "ENH": {
        "IATA": "ENH",
        "ICAO": "ZHES",
        "altitude": 1605.0,
        "city": "恩施",
        "country": "中国",
        "latitude": 30.320278,
        "longitude": 109.485,
        "name": "恩施许家坪",
        "timezone": "Asia/Shanghai"
    },
    "ENY": {
        "IATA": "ENY",
        "ICAO": "ZLYA",
        "altitude": 3100.0,
        "city": "延安",
        "country": "中国",
        "latitude": 36.636944,
        "longitude": 109.553889,
        "name": "延安南泥湾",
        "timezone": "Asia/Shanghai"
    },
    "ERL": {
        "IATA": "ERL",
        "ICAO": "ZBER",
        "altitude": 3301.0,
        "city": "二连浩特",
        "country": "中国",
        "latitude": 43.426667,
        "longitude": 112.098333,
        "name": "二连浩特赛乌苏",
        "timezone": "Asia/Shanghai"
    },
    "FUG": {
        "IATA": "FUG",
        "ICAO": "ZSFY",
        "altitude": 104.0,
        "city": "阜阳",
        "country": "中国",
        "latitude": 32.881667,
        "longitude": 115.733889,
        "name": "阜阳西关",
        "timezone": "Asia/Shanghai"
    },
    "FUO": {
        "IATA": "FUO",
        "city": "佛山",
        "country": "中国",
        "latitude": 23.083333,
        "longitude": 113.070833,
        "name": "佛山沙堤",
        "timezone": "Asia/Shanghai"
    },
    "FYJ": {
        "IATA": "FYJ",
        "ICAO": "ZYFY",
        "altitude": 0.0,
        "city": "抚远",
        "country": "中国",
        "latitude": 48.199494,
        "longitude": 134.366447,
        "name": "抚远东极",
        "timezone": "Asia/Shanghai"
    },
    "FYN": {
        "IATA": "FYN",
        "ICAO": "ZWFY",
        "altitude": 3081.0,
        "city": "富蕴",
        "country": "中国",
        "latitude": 46.811897,
        "longitude": 89.555514,
        "name": "富蕴可可托海",
        "timezone": "Asia/Shanghai"
    },
    "GMQ": {
        "IATA": "GMQ",
        "city": "果洛",
        "country": "中国",
        "latitude": 34.415833,
        "longitude": 100.311111,
        "name": "果洛玛沁",
        "timezone": "Asia/Shanghai"
    },
    "GOQ": {
        "IATA": "GOQ",
        "ICAO": "ZLGM",
        "altitude": 9334.0,
        "city": "格尔木",
        "country": "中国",
        "latitude": 36.4,
        "longitude": 94.786111,
        "name": "格尔木",
        "timezone": "Asia/Shanghai"
    },
    "GXH": {
        "IATA": "GXH",
        "ICAO": "ZLXH",
        "altitude": 10510.0,
        "city": "甘南",
        "country": "中国",
        "latitude": 34.810556,
        "longitude": 102.644722,
        "name": "甘南夏河",
        "timezone": "Asia/Shanghai"
    },
    "GYS": {
        "IATA": "GYS",
        "ICAO": "ZUGU",
        "altitude": 0.0,
        "city": "广元",
        "country": "中国",
        "latitude": 32.391111,
        "longitude": 105.701667,
        "name": "广元盘龙",
        "timezone": "Asia/Shanghai"
    },
    "GYU": {
        "IATA": "GYU",
        "ICAO": "ZLGY",
        "altitude": 5696.0,
        "city": "固原",
        "country": "中国",
        "latitude": 36.078611,
        "longitude": 106.216667,
        "name": "固原六盘山",
        "timezone": "Asia/Shanghai"
    },
    "HCJ": {
        "IATA": "HCJ",
        "ICAO": "ZGHC",
        "altitude": 2221.0,
        "city": "河池",
        "country": "中国",
        "latitude": 24.783889,
        "longitude": 107.699722,
        "name": "河池金城江",
        "timezone": "Asia/Shanghai"
    },
    "HDG": {
        "IATA": "HDG",
        "ICAO": "ZBHD",
        "altitude": 229.0,
        "city": "邯郸",
        "country": "中国",
        "latitude": 36.523889,
        "longitude": 114.43,
        "name": "邯郸",
        "timezone": "Asia/Shanghai"
    },
    "HEK": {
        "IATA": "HEK",
        "ICAO": "ZYHE",
        "altitude": 8530.0,
        "city": "黑河",
        "country": "中国",
        "latitude": 50.171944,
        "longitude": 127.308889,
        "name": "黑河瑷珲",
        "timezone": "Asia/Shanghai"
    },
    "HIA": {
        "IATA": "HIA",
        "city": "淮安",
        "country": "中国",
        "latitude": 33.79,
        "longitude": 119.123,
        "name": "淮安涟水",
        "timezone": "Asia/Shanghai"
    },
    "HJJ": {
        "IATA": "HJJ",
        "ICAO": "ZGCJ",
        "altitude": 882.0,
        "city": "怀化",
        "country": "中国",
        "latitude": 27.443889,
        "longitude": 109.705,
        "name": "怀化芷江",
        "timezone": "Asia/Shanghai"
    },
    "HLE": {
        "IATA": "HLE",
        "ICAO": "FHSH",
        "altitude": 1017.0,
        "city": "新源",
        "country": "中国",
        "latitude": -15.959166,
        "longitude": -5.645832,
        "name": "新源那拉提",
        "timezone": "Asia/Shanghai"
    },
    "HLH": {
        "IATA": "HLH",
        "ICAO": "ZBUL",
        "altitude": 0.0,
        "city": "乌兰浩特",
        "country": "中国",
        "latitude": 46.194444,
        "longitude": 122.008611,
        "name": "乌兰浩特义勒力特",
        "timezone": "Asia/Shanghai"
    },
    "HMI": {
        "IATA": "HMI",
        "ICAO": "ZWHM",
        "altitude": 2703.0,
        "city": "哈密",
        "country": "中国",
        "latitude": 42.841389,
        "longitude": 93.669167,
        "name": "哈密",
        "timezone": "Asia/Shanghai"
    },
    "HNY": {
        "IATA": "HNY",
        "ICAO": "ZGHY",
        "altitude": 0.0,
        "city": "衡阳",
        "country": "中国",
        "latitude": 26.721944,
        "longitude": 112.618056,
        "name": "衡阳南岳",
        "timezone": "Asia/Shanghai"
    },
    "HPG": {
        "IATA": "HPG",
        "ICAO": "ZHSN",
        "altitude": 8365.0,
        "city": "神农架",
        "country": "中国",
        "latitude": 31.633611,
        "longitude": 110.338056,
        "name": "神农架红坪",
        "timezone": "Asia/Shanghai"
    },
    "HSN": {
        "IATA": "HSN",
        "ICAO": "ZSZS",
        "altitude": 3.0,
        "city": "舟山",
        "country": "中国",
        "latitude": 29.934167,
        "longitude": 122.362222,
        "name": "舟山普陀山",
        "timezone": "Asia/Shanghai"
    },
    "HTN": {
        "IATA": "HTN",
        "ICAO": "ZWTN",
        "altitude": 4672.0,
        "city": "和田",
        "country": "中国",
        "latitude": 37.038522,
        "longitude": 79.864933,
        "name": "和田",
        "timezone": "Asia/Shanghai"
    },
    "HTT": {
        "IATA": "HTT",
        "ICAO": "ZLHX",
        "altitude": 2945.0,
        "city": "茫崖",
        "country": "中国",
        "latitude": 38.203333,
        "longitude": 90.841667,
        "name": "茫崖花土沟",
        "timezone": "Asia/Shanghai"
    },
    "HUO": {
        "IATA": "HUO",
        "ICAO": "ZBHZ",
        "altitude": 0.0,
        "city": "霍林郭勒",
        "country": "中国",
        "latitude": 45.487222,
        "longitude": 119.406111,
        "name": "霍林郭勒霍林河",
        "timezone": "Asia/Shanghai"
    },
    "HXD": {
        "IATA": "HXD",
        "ICAO": "ZLDL",
        "altitude": 9843.0,
        "city": "德令哈",
        "country": "中国",
        "latitude": 37.125,
        "longitude": 97.268611,
        "name": "德令哈",
        "timezone": "Asia/Shanghai"
    },
    "HYN": {
        "IATA": "HYN",
        "ICAO": "ZSLQ",
        "altitude": 0.0,
        "city": "台州",
        "country": "中国",
        "latitude": 28.562222,
        "longitude": 121.428611,
        "name": "台州路桥",
        "timezone": "Asia/Shanghai"
    },
    "HZG": {
        "IATA": "HZG",
        "ICAO": "ZLHZ",
        "altitude": 0.0,
        "city": "汉中",
        "country": "中国",
        "latitude": 33.133611,
        "longitude": 107.204444,
        "name": "汉中城固",
        "timezone": "Asia/Shanghai"
    },
    "IQM": {
        "IATA": "IQM",
        "ICAO": "ZWCM",
        "altitude": 0.0,
        "city": "且末",
        "country": "中国",
        "latitude": 38.149444,
        "longitude": 85.532778,
        "name": "且末玉都",
        "timezone": "Asia/Shanghai"
    },
    "IQN": {
        "IATA": "IQN",
        "ICAO": "ZLQY",
        "altitude": 0.0,
        "city": "庆阳",
        "country": "中国",
        "latitude": 35.799722,
        "longitude": 107.602778,
        "name": "庆阳",
        "timezone": "Asia/Shanghai"
    },
    "JDZ": {
        "IATA": "JDZ",
        "ICAO": "ZSJD",
        "altitude": 112.0,
        "city": "景德镇",
        "country": "中国",
        "latitude": 29.338611,
        "longitude": 117.175833,
        "name": "景德镇罗家",
        "timezone": "Asia/Shanghai"
    },
    "JGD": {
        "IATA": "JGD",
        "city": "加格达奇",
        "country": "中国",
        "latitude": 50.370833,
        "longitude": 124.1175,
        "name": "加格达奇",
        "timezone": "Asia/Shanghai"
    },
    "JGN": {
        "IATA": "JGN",
        "ICAO": "ZLJQ",
        "altitude": 5112.0,
        "city": "嘉峪关",
        "country": "中国",
        "latitude": 39.859444,
        "longitude": 98.338333,
        "name": "嘉峪关",
        "timezone": "Asia/Shanghai"
    },
    "JGS": {
        "IATA": "JGS",
        "city": "井冈山",
        "country": "中国",
        "latitude": 26.8575,
        "longitude": 114.737222,
        "name": "井冈山",
        "timezone": "Asia/Shanghai"
    },
    "JIC": {
        "IATA": "JIC",
        "city": "金昌",
        "country": "中国",
        "latitude": 38.541944,
        "longitude": 102.348333,
        "name": "金昌金川",
        "timezone": "Asia/Shanghai"
    },
    "JIQ": {
        "IATA": "JIQ",
        "ICAO": "ZUQJ",
        "city": "黔江",
        "country": "中国",
        "latitude": 29.513611,
        "longitude": 108.831389,
        "name": "黔江武陵山",
        "timezone": "Asia/Shanghai"
    },
    "JMJ": {
        "IATA": "JMJ",
        "ICAO": "ZPJM",
        "altitude": 0.0,
        "city": "澜沧",
        "country": "中国",
        "latitude": 22.415833,
        "longitude": 99.786389,
        "name": "澜沧景迈",
        "timezone": "Asia/Shanghai"
    },
    "JMU": {
        "IATA": "JMU",
        "ICAO": "ZYJM",
        "altitude": 262.0,
        "city": "佳木斯",
        "country": "中国",
        "latitude": 46.842,
        "longitude": 130.465,
        "name": "佳木斯东郊",
        "timezone": "Asia/Shanghai"
    },
    "JNG": {
        "IATA": "JNG",
        "ICAO": "ZLJN",
        "altitude": 134.0,
        "city": "济宁",
        "country": "中国",
        "latitude": 35.292778,
        "longitude": 116.346389,
        "name": "济宁曲阜",
        "timezone": "Asia/Shanghai"
    },
    "JNZ": {
        "IATA": "JNZ",
        "ICAO": "ZYJZ",
        "altitude": 0.0,
        "city": "锦州湾",
        "country": "中国",
        "latitude": 40.936111,
        "longitude": 121.276944,
        "name": "锦州湾",
        "timezone": "Asia/Shanghai"
    },
    "JSJ": {
        "IATA": "JSJ",
        "ICAO": "ZYJS",
        "altitude": 0.0,
        "city": "建三江",
        "country": "中国",
        "latitude": 47.11,
        "longitude": 132.660278,
        "name": "建三江湿地",
        "timezone": "Asia/Shanghai"
    },
    "JUH": {
        "IATA": "JUH",
        "city": "池州",
        "country": "中国",
        "latitude": 30.740278,
        "longitude": 117.686667,
        "name": "池州九华山",
        "timezone": "Asia/Shanghai"
    },
    "JUZ": {
        "IATA": "JUZ",
        "ICAO": "ZSJU",
        "altitude": 0.0,
        "city": "衢州",
        "country": "中国",
        "latitude": 28.965833,
        "longitude": 118.899444,
        "name": "衢州",
        "timezone": "Asia/Shanghai"
    },
    "JXA": {
        "IATA": "JXA",
        "ICAO": "ZYJX",
        "altitude": 760.0,
        "city": "鸡西",
        "country": "中国",
        "latitude": 45.66,
        "longitude": 132.46,
        "name": "鸡西兴凯湖",
        "timezone": "Asia/Shanghai"
    },
    "JZH": {
        "IATA": "JZH",
        "ICAO": "ZUJZ",
        "altitude": 11327.0,
        "city": "九寨",
        "country": "中国",
        "latitude": 32.857,
        "longitude": 103.683,
        "name": "九寨黄龙",
        "timezone": "Asia/Shanghai"
    },
    "KCA": {
        "IATA": "KCA",
        "ICAO": "ZWKC",
        "altitude": 3524.0,
        "city": "库车",
        "country": "中国",
        "latitude": 41.718056,
        "longitude": 82.986944,
        "name": "库车龟兹",
        "timezone": "Asia/Shanghai"
    },
    "KGT": {
        "IATA": "KGT",
        "ICAO": "ZUKD",
        "altitude": 14042.0,
        "city": "甘孜",
        "country": "中国",
        "latitude": 30.142778,
        "longitude": 101.738611,
        "name": "甘孜康定",
        "timezone": "Asia/Shanghai"
    },
    "KJH": {
        "IATA": "KJH",
        "ICAO": "ZUKJ",
        "altitude": 3115.0,
        "city": "凯里",
        "country": "中国",
        "latitude": 26.971667,
        "longitude": 107.987778,
        "name": "凯里黄平",
        "timezone": "Asia/Shanghai"
    },
    "KJI": {
        "IATA": "KJI",
        "ICAO": "ZWKN",
        "altitude": 3921.0,
        "city": "布尔津",
        "country": "中国",
        "latitude": 48.222222,
        "longitude": 86.995556,
        "name": "布尔津喀纳斯",
        "timezone": "Asia/Shanghai"
    },
    "KRY": {
        "IATA": "KRY",
        "ICAO": "ZWKM",
        "altitude": 0.0,
        "city": "克拉玛依",
        "country": "中国",
        "latitude": 45.466389,
        "longitude": 84.9525,
        "name": "克拉玛依",
        "timezone": "Asia/Shanghai"
    },
    "LCX": {
        "IATA": "LCX",
        "ICAO": "ZSLD",
        "altitude": 1225.0,
        "city": "龙岩",
        "country": "中国",
        "latitude": 25.675833,
        "longitude": 116.746389,
        "name": "龙岩冠豸山",
        "timezone": "Asia/Shanghai"
    },
    "LDS": {
        "IATA": "LDS",
        "ICAO": "ZYLD",
        "altitude": 791.0,
        "city": "伊春",
        "country": "中国",
        "latitude": 47.751944,
        "longitude": 129.018889,
        "name": "伊春林都",
        "timezone": "Asia/Shanghai"
    },
    "LFQ": {
        "IATA": "LFQ",
        "ICAO": "ZBLF",
        "altitude": 1483.0,
        "city": "临汾",
        "country": "中国",
        "latitude": 36.041944,
        "longitude": 111.492222,
        "name": "临汾乔李",
        "timezone": "Asia/Shanghai"
    },
    "LLB": {
        "IATA": "LLB",
        "ICAO": "ZULB",
        "altitude": 0.0,
        "city": "荔波",
        "country": "中国",
        "latitude": 25.450833,
        "longitude": 107.962222,
        "name": "荔波",
        "timezone": "Asia/Shanghai"
    },
    "LLF": {
        "IATA": "LLF",
        "ICAO": "ZGLG",
        "altitude": 340.0,
        "city": "永州",
        "country": "中国",
        "latitude": 26.338611,
        "longitude": 111.609722,
        "name": "永州零陵",
        "timezone": "Asia/Shanghai"
    },
    "LLV": {
        "IATA": "LLV",
        "ICAO": "ZBLL",
        "altitude": 0.0,
        "city": "吕梁",
        "country": "中国",
        "latitude": 37.681667,
        "longitude": 111.142778,
        "name": "吕梁大武",
        "timezone": "Asia/Shanghai"
    },
    "LNJ": {
        "IATA": "LNJ",
        "city": "临沧",
        "country": "中国",
        "latitude": 23.738611,
        "longitude": 100.024722,
        "name": "临沧",
        "timezone": "Asia/Shanghai"
    },
    "LNL": {
        "IATA": "LNL",
        "ICAO": "ZLLN",
        "altitude": 3707.0,
        "city": "陇南",
        "country": "中国",
        "latitude": 33.789722,
        "longitude": 105.788611,
        "name": "陇南成县",
        "timezone": "Asia/Shanghai"
    },
    "LPF": {
        "IATA": "LPF",
        "ICAO": "ZUPS",
        "altitude": 0.0,
        "city": "六盘水",
        "country": "中国",
        "latitude": 26.608889,
        "longitude": 104.978333,
        "name": "六盘水月照",
        "timezone": "Asia/Shanghai"
    },
    "LYA": {
        "IATA": "LYA",
        "ICAO": "ZHLY",
        "altitude": 840.0,
        "city": "洛阳",
        "country": "中国",
        "latitude": 34.741111,
        "longitude": 112.388333,
        "name": "洛阳北郊",
        "timezone": "Asia/Shanghai"
    },
    "LYG": {
        "IATA": "LYG",
        "ICAO": "ZSLG",
        "altitude": 0.0,
        "city": "连云港",
        "country": "中国",
        "latitude": 34.571667,
        "longitude": 118.873611,
        "name": "连云港白塔埠",
        "timezone": "Asia/Shanghai"
    },
    "LZH": {
        "IATA": "LZH",
        "ICAO": "ZGZH",
        "altitude": 295.0,
        "city": "柳州",
        "country": "中国",
        "latitude": 24.2075,
        "longitude": 109.391111,
        "name": "柳州白莲",
        "timezone": "Asia/Shanghai"
    },
    "LZO": {
        "IATA": "LZO",
        "ICAO": "ZULZ",
        "altitude": 0.0,
        "city": "泸州",
        "country": "中国",
        "latitude": 28.8525,
        "longitude": 105.3925,
        "name": "泸州云龙",
        "timezone": "Asia/Shanghai"
    },
    "LZY": {
        "IATA": "LZY",
        "ICAO": "ZUNZ",
        "altitude": 9675.0,
        "city": "林芝",
        "country": "中国",
        "latitude": 29.303611,
        "longitude": 94.335,
        "name": "林芝米林",
        "timezone": "Asia/Shanghai"
    },
    "MDG": {
        "IATA": "MDG",
        "ICAO": "ZYMD",
        "altitude": 883.0,
        "city": "牡丹江",
        "country": "中国",
        "latitude": 44.523,
        "longitude": 129.57,
        "name": "牡丹江海浪",
        "timezone": "Asia/Shanghai"
    },
    "MXZ": {
        "IATA": "MXZ",
        "ICAO": "ZGMX",
        "altitude": 0.0,
        "city": "梅县",
        "country": "中国",
        "latitude": 24.269,
        "longitude": 116.104,
        "name": "梅县长岗岌",
        "timezone": "Asia/Shanghai"
    },
    "NAO": {
        "IATA": "NAO",
        "ICAO": "ZUNC",
        "altitude": 0.0,
        "city": "南充",
        "country": "中国",
        "latitude": 30.754,
        "longitude": 106.062,
        "name": "南充高坪",
        "timezone": "Asia/Shanghai"
    },
    "NBS": {
        "IATA": "NBS",
        "city": "长白山",
        "country": "中国",
        "latitude": 42.088056,
        "longitude": 127.548889,
        "name": "长白山",
        "timezone": "Asia/Shanghai"
    },
    "NDG": {
        "IATA": "NDG",
        "ICAO": "ZYQQ",
        "altitude": 477.0,
        "city": "齐齐哈尔",
        "country": "中国",
        "latitude": 47.238,
        "longitude": 123.917,
        "name": "齐齐哈尔三家子",
        "timezone": "Asia/Shanghai"
    },
    "NGQ": {
        "IATA": "NGQ",
        "ICAO": "ZUAL",
        "altitude": 14022.0,
        "city": "阿里",
        "country": "中国",
        "latitude": 32.099722,
        "longitude": 80.052778,
        "name": "阿里昆莎",
        "timezone": "Asia/Shanghai"
    },
    "NLH": {
        "IATA": "NLH",
        "city": "宁蒗",
        "country": "中国",
        "latitude": 27.540278,
        "longitude": 100.759167,
        "name": "宁蒗泸沽湖",
        "timezone": "Asia/Shanghai"
    },
    "NNY": {
        "IATA": "NNY",
        "ICAO": "ZHNY",
        "altitude": 840.0,
        "city": "南阳",
        "country": "中国",
        "latitude": 32.980833,
        "longitude": 112.615278,
        "name": "南阳姜营",
        "timezone": "Asia/Shanghai"
    },
    "NZH": {
        "IATA": "NZH",
        "ICAO": "ZBMZ",
        "altitude": 2231.0,
        "city": "满洲里",
        "country": "中国",
        "latitude": 49.566667,
        "longitude": 117.329444,
        "name": "满洲里西郊",
        "timezone": "Asia/Shanghai"
    },
    "NZL": {
        "IATA": "NZL",
        "ICAO": "ZBZL",
        "altitude": 928.0,
        "city": "扎兰屯",
        "country": "中国",
        "latitude": 47.746,
        "longitude": 122.833,
        "name": "扎兰屯成吉思汗",
        "timezone": "Asia/Shanghai"
    },
    "OHE": {
        "IATA": "OHE",
        "ICAO": "ZYMH",
        "altitude": 1836.0,
        "city": "漠河",
        "country": "中国",
        "latitude": 52.916944,
        "longitude": 122.423056,
        "name": "漠河古莲",
        "timezone": "Asia/Shanghai"
    },
    "PZI": {
        "IATA": "PZI",
        "city": "攀枝花",
        "country": "中国",
        "latitude": 26.54,
        "longitude": 101.799,
        "name": "攀枝花保安营",
        "timezone": "Asia/Shanghai"
    },
    "QSZ": {
        "IATA": "QSZ",
        "ICAO": "ZWSC",
        "altitude": 4232.0,
        "city": "莎车",
        "country": "中国",
        "latitude": 38.245,
        "longitude": 77.06,
        "name": "莎车叶尔羌",
        "timezone": "Asia/Shanghai"
    },
    "RHT": {
        "IATA": "RHT",
        "city": "阿拉善右旗",
        "country": "中国",
        "latitude": 39.213333,
        "longitude": 101.644167,
        "name": "阿拉善右旗巴丹吉林",
        "timezone": "Asia/Shanghai"
    },
    "RIZ": {
        "IATA": "RIZ",
        "ICAO": "ZSRZ",
        "altitude": 121.0,
        "city": "日照",
        "country": "中国",
        "latitude": 35.402,
        "longitude": 119.32,
        "name": "日照山字河",
        "timezone": "Asia/Shanghai"
    },
    "RKZ": {
        "IATA": "RKZ",
        "city": "日喀则",
        "country": "中国",
        "latitude": 29.351944,
        "longitude": 89.310278,
        "name": "日喀则和平",
        "timezone": "Asia/Shanghai"
    },
    "RLK": {
        "IATA": "RLK",
        "ICAO": "ZBYZ",
        "altitude": 3400.0,
        "city": "巴彦淖尔",
        "country": "中国",
        "latitude": 40.926389,
        "longitude": 107.738889,
        "name": "巴彦淖尔天吉泰",
        "timezone": "Asia/Shanghai"
    },
    "SHF": {
        "IATA": "SHF",
        "city": "石河子",
        "country": "中国",
        "latitude": 44.242064,
        "longitude": 85.890539,
        "name": "石河子花园",
        "timezone": "Asia/Shanghai"
    },
    "SQD": {
        "IATA": "SQD",
        "city": "上饶",
        "country": "中国",
        "latitude": 28.379444,
        "longitude": 117.964167,
        "name": "上饶三清山",
        "timezone": "Asia/Shanghai"
    },
    "SQJ": {
        "IATA": "SQJ",
        "city": "三明",
        "country": "中国",
        "latitude": 26.426111,
        "longitude": 117.833611,
        "name": "三明沙县",
        "timezone": "Asia/Shanghai"
    },
    "SYM": {
        "IATA": "SYM",
        "ICAO": "ZPSM",
        "altitude": 0.0,
        "city": "普洱",
        "country": "中国",
        "latitude": 22.793333,
        "longitude": 100.959444,
        "name": "普洱思茅",
        "timezone": "Asia/Shanghai"
    },
    "TCG": {
        "IATA": "TCG",
        "ICAO": "ZWTC",
        "altitude": 0.0,
        "city": "塔城",
        "country": "中国",
        "latitude": 46.6725,
        "longitude": 83.340833,
        "name": "塔城",
        "timezone": "Asia/Shanghai"
    },
    "TCZ": {
        "IATA": "TCZ",
        "ICAO": "ZUTC",
        "altitude": 6250.0,
        "city": "腾冲",
        "country": "中国",
        "latitude": 24.938056,
        "longitude": 98.485556,
        "name": "腾冲驼峰",
        "timezone": "Asia/Shanghai"
    },
    "TEN": {
        "IATA": "TEN",
        "ICAO": "ZUTR",
        "altitude": 0.0,
        "city": "铜仁",
        "country": "中国",
        "latitude": 27.884,
        "longitude": 109.31,
        "name": "铜仁凤凰",
        "timezone": "Asia/Shanghai"
    },
    "TGO": {
        "IATA": "TGO",
        "ICAO": "ZBTL",
        "altitude": 2395.0,
        "city": "通辽",
        "country": "中国",
        "latitude": 43.556667,
        "longitude": 122.199722,
        "name": "通辽",
        "timezone": "Asia/Shanghai"
    },
    "THQ": {
        "IATA": "THQ",
        "city": "天水",
        "country": "中国",
        "latitude": 34.56,
        "longitude": 105.860278,
        "name": "天水麦积山",
        "timezone": "Asia/Shanghai"
    },
    "TLQ": {
        "IATA": "TLQ",
        "ICAO": "ZWTP",
        "altitude": 934.0,
        "city": "吐鲁番",
        "country": "中国",
        "latitude": 43.030556,
        "longitude": 89.098611,
        "name": "吐鲁番交河",
        "timezone": "Asia/Shanghai"
    },
    "TNH": {
        "IATA": "TNH",
        "ICAO": "ZYTN",
        "altitude": 1200.0,
        "city": "通化",
        "country": "中国",
        "latitude": 42.253889,
        "longitude": 125.703333,
        "name": "通化三源浦",
        "timezone": "Asia/Shanghai"
    },
    "TVS": {
        "IATA": "TVS",
        "city": "唐山",
        "country": "中国",
        "latitude": 39.7175,
        "longitude": 118.002778,
        "name": "唐山三女河",
        "timezone": "Asia/Shanghai"
    },
    "TXN": {
        "IATA": "TXN",
        "ICAO": "ZSTX",
        "altitude": 0.0,
        "city": "黄山",
        "country": "中国",
        "latitude": 29.733333,
        "longitude": 118.255833,
        "name": "黄山屯溪",
        "timezone": "Asia/Shanghai"
    },
    "UCB": {
        "IATA": "UCB",
        "ICAO": "ZBUC",
        "altitude": 0.0,
        "city": "乌兰察布",
        "country": "中国",
        "latitude": 41.13,
        "longitude": 113.106389,
        "name": "乌兰察布集宁",
        "timezone": "Asia/Shanghai"
    },
    "WDS": {
        "IATA": "WDS",
        "ICAO": "ZHSY",
        "altitude": 0.0,
        "city": "十堰",
        "country": "中国",
        "latitude": 32.593056,
        "longitude": 110.905833,
        "name": "十堰武当山",
        "timezone": "Asia/Shanghai"
    },
    "WEF": {
        "IATA": "WEF",
        "ICAO": "ZSWF",
        "altitude": 0.0,
        "city": "潍坊",
        "country": "中国",
        "latitude": 36.646667,
        "longitude": 119.118611,
        "name": "潍坊",
        "timezone": "Asia/Shanghai"
    },
    "WGN": {
        "IATA": "WGN",
        "ICAO": "ZGSY",
        "altitude": 1444.0,
        "city": "邵阳",
        "country": "中国",
        "latitude": 26.8,
        "longitude": 110.8,
        "name": "邵阳武冈",
        "timezone": "Asia/Shanghai"
    },
    "WMT": {
        "IATA": "WMT",
        "ICAO": "ZUMT",
        "altitude": 4068.0,
        "city": "遵义",
        "country": "中国",
        "latitude": 27.816,
        "longitude": 106.333,
        "name": "遵义茅台",
        "timezone": "Asia/Shanghai"
    },
    "WNH": {
        "IATA": "WNH",
        "city": "文山",
        "country": "中国",
        "latitude": 23.558056,
        "longitude": 104.325278,
        "name": "文山普者黑",
        "timezone": "Asia/Shanghai"
    },
    "WUA": {
        "IATA": "WUA",
        "ICAO": "ZBUH",
        "altitude": 3650.0,
        "city": "乌海",
        "country": "中国",
        "latitude": 39.794444,
        "longitude": 106.799444,
        "name": "乌海",
        "timezone": "Asia/Shanghai"
    },
    "WUS": {
        "IATA": "WUS",
        "ICAO": "ZSWY",
        "altitude": 614.0,
        "city": "武夷山",
        "country": "中国",
        "latitude": 27.701944,
        "longitude": 118.001389,
        "name": "武夷山",
        "timezone": "Asia/Shanghai"
    },
    "WUT": {
        "IATA": "WUT",
        "ICAO": "ZBXZ",
        "altitude": 2527.0,
        "city": "忻州",
        "country": "中国",
        "latitude": 38.597222,
        "longitude": 112.968056,
        "name": "忻州五台山",
        "timezone": "Asia/Shanghai"
    },
    "WUZ": {
        "IATA": "WUZ",
        "ICAO": "ZGWZ",
        "altitude": 89.0,
        "city": "梧州",
        "country": "中国",
        "latitude": 23.456667,
        "longitude": 111.248056,
        "name": "梧州西江",
        "timezone": "Asia/Shanghai"
    },
    "WXN": {
        "IATA": "WXN",
        "ICAO": "ZUWX",
        "altitude": 0.0,
        "city": "万州",
        "country": "中国",
        "latitude": 30.801667,
        "longitude": 108.432778,
        "name": "万州五桥",
        "timezone": "Asia/Shanghai"
    },
    "XFN": {
        "IATA": "XFN",
        "ICAO": "ZHXF",
        "altitude": 0.0,
        "city": "襄阳",
        "country": "中国",
        "latitude": 32.150556,
        "longitude": 112.290833,
        "name": "襄阳刘集",
        "timezone": "Asia/Shanghai"
    },
    "XIC": {
        "IATA": "XIC",
        "ICAO": "ZUXC",
        "altitude": 5112.0,
        "city": "西昌",
        "country": "中国",
        "latitude": 27.99,
        "longitude": 102.183,
        "name": "西昌青山",
        "timezone": "Asia/Shanghai"
    },
    "XIL": {
        "IATA": "XIL",
        "ICAO": "ZBXH",
        "altitude": 0.0,
        "city": "锡林浩特",
        "country": "中国",
        "latitude": 43.915556,
        "longitude": 115.963889,
        "name": "锡林浩特",
        "timezone": "Asia/Shanghai"
    },
    "YBP": {
        "IATA": "YBP",
        "ICAO": "ZUYB",
        "altitude": 924.0,
        "city": "宜宾",
        "country": "中国",
        "latitude": 28.800278,
        "longitude": 104.544444,
        "name": "宜宾菜坝",
        "timezone": "Asia/Shanghai"
    },
    "YIC": {
        "IATA": "YIC",
        "ICAO": "ZSYC",
        "altitude": 430.0,
        "city": "宜春",
        "country": "中国",
        "latitude": 27.802222,
        "longitude": 114.306111,
        "name": "宜春明月山",
        "timezone": "Asia/Shanghai"
    },
    "YIE": {
        "IATA": "YIE",
        "ICAO": "ZBES",
        "altitude": 2925.0,
        "city": "阿尔山",
        "country": "中国",
        "latitude": 47.310556,
        "longitude": 119.911944,
        "name": "阿尔山伊尔施",
        "timezone": "Asia/Shanghai"
    },
    "YIN": {
        "IATA": "YIN",
        "ICAO": "ZWYN",
        "altitude": 0.0,
        "city": "伊宁",
        "country": "中国",
        "latitude": 43.955833,
        "longitude": 81.330278,
        "name": "伊宁",
        "timezone": "Asia/Shanghai"
    },
    "YKH": {
        "IATA": "YKH",
        "ICAO": "ZYYK",
        "altitude": 0.0,
        "city": "营口",
        "country": "中国",
        "latitude": 40.542222,
        "longitude": 122.358333,
        "name": "营口兰旗",
        "timezone": "Asia/Shanghai"
    },
    "YNJ": {
        "IATA": "YNJ",
        "ICAO": "ZYYJ",
        "altitude": 624.0,
        "city": "延吉",
        "country": "中国",
        "latitude": 42.882,
        "longitude": 129.45,
        "name": "延吉朝阳川",
        "timezone": "Asia/Shanghai"
    },
    "YSQ": {
        "IATA": "YSQ",
        "ICAO": "ZYSQ",
        "altitude": 459.0,
        "city": "松原",
        "country": "中国",
        "latitude": 44.938,
        "longitude": 124.55,
        "name": "松原查干湖",
        "timezone": "Asia/Shanghai"
    },
    "YUS": {
        "IATA": "YUS",
        "ICAO": "ZYLS",
        "altitude": 12816.0,
        "city": "玉树",
        "country": "中国",
        "latitude": 32.836389,
        "longitude": 97.036111,
        "name": "玉树巴塘",
        "timezone": "Asia/Shanghai"
    },
    "YYA": {
        "IATA": "YYA",
        "city": "岳阳",
        "country": "中国",
        "latitude": 29.3125,
        "longitude": 113.281667,
        "name": "岳阳三荷",
        "timezone": "Asia/Shanghai"
    },
    "YZY": {
        "IATA": "YZY",
        "city": "张掖",
        "country": "中国",
        "latitude": 38.802828,
        "longitude": 100.673511,
        "name": "张掖甘州",
        "timezone": "Asia/Shanghai"
    },
    "ZAT": {
        "IATA": "ZAT",
        "ICAO": "ZPZT",
        "altitude": 0.0,
        "city": "昭通",
        "country": "中国",
        "latitude": 27.325556,
        "longitude": 103.755,
        "name": "昭通",
        "timezone": "Asia/Shanghai"
    },
    "ZHY": {
        "IATA": "ZHY",
        "ICAO": "ZLZW",
        "altitude": 8202.0,
        "city": "中卫",
        "country": "中国",
        "latitude": 37.573056,
        "longitude": 105.154722,
        "name": "中卫沙坡头",
        "timezone": "Asia/Shanghai"
    },
    "ZQZ": {
        "IATA": "ZQZ",
        "city": "张家口",
        "country": "中国",
        "latitude": 40.739444,
        "longitude": 114.931111,
        "name": "张家口宁远",
        "timezone": "Asia/Shanghai"
    }
}